[
    {
        "city": "Genève", 
        "admin": "Genève",
        "country": "Switzerland", 
        "population_proper": "192385", 
        "iso2": "CH", 
        "capital": "admin", 
        "lat": "46.195602", 
        "lng": "6.148113", 
        "population": "1240000"
    }, 
    {
        "city": "Zürich",
        "admin": "Zürich",
        "country": "Switzerland",
        "population_proper": "341730",
        "iso2": "CH",
        "capital": "admin",
        "lat": "47.366667",
        "lng": "8.55",
        "population": "1108000"
    },
    {
        "city": "Basel",
        "admin": "Basel-Stadt",
        "country": "Switzerland",
        "population_proper": "170635",
        "iso2": "CH",
        "capital": "admin",
        "lat": "47.558395",
        "lng": "7.573271",
        "population": "830000"
    },
    {
        "city": "Berne",
        "admin": "Berne",
        "country": "Switzerland",
        "population_proper": "121631",
        "iso2": "CH",
        "capital": "primary",
        "lat": "46.916667",
        "lng": "7.466667",
        "population": "275329"
    },
    {
        "city": "Lausanne",
        "admin": "Vaud",
        "country": "Switzerland",
        "population_proper": "116751",
        "iso2": "CH",
        "capital": "admin",
        "lat": "46.533333",
        "lng": "6.666667",
        "population": "265702"
    },
    {
        "city": "Lucerne",
        "admin": "Lucerne",
        "country": "Switzerland",
        "population_proper": "77491",
        "iso2": "CH",
        "capital": "admin",
        "lat": "47.083333",
        "lng": "8.266667",
        "population": "250000"
    },
    {
        "city": "Lugano",
        "admin": "Tessin",
        "country": "Switzerland",
        "population_proper": "26365",
        "iso2": "CH",
        "capital": "",
        "lat": "46.009279",
        "lng": "8.955576",
        "population": "105388"
    },
    {
        "city": "Sankt Fiden",
        "admin": "Saint-Gall",
        "country": "Switzerland",
        "population_proper": "70572",
        "iso2": "CH",
        "capital": "",
        "lat": "47.43162",
        "lng": "9.39845",
        "population": "70572"
    },
    {
        "city": "Chur",
        "admin": "Graubünden",
        "country": "Switzerland",
        "population_proper": "32429",
        "iso2": "CH",
        "capital": "admin",
        "lat": "46.856753",
        "lng": "9.526918",
        "population": "38293"
    },
    {
        "city": "Schaffhausen",
        "admin": "Schaffhausen",
        "country": "Switzerland",
        "population_proper": "33863",
        "iso2": "CH",
        "capital": "admin",
        "lat": "47.697316",
        "lng": "8.634929",
        "population": "33863"
    },
    {
        "city": "Fribourg",
        "admin": "Fribourg",
        "country": "Switzerland",
        "population_proper": "32827",
        "iso2": "CH",
        "capital": "admin",
        "lat": "46.79572",
        "lng": "7.154748",
        "population": "32827"
    },
    {
        "city": "Neuchâtel",
        "admin": "Neuchâtel",
        "country": "Switzerland",
        "population_proper": "31270",
        "iso2": "CH",
        "capital": "admin",
        "lat": "46.993089",
        "lng": "6.93005",
        "population": "31270"
    },
    {
        "city": "Tripon",
        "admin": "Valais",
        "country": "Switzerland",
        "population_proper": "28045",
        "iso2": "CH",
        "capital": "",
        "lat": "46.270839",
        "lng": "7.317785",
        "population": "28045"
    },
    {
        "city": "Zoug",
        "admin": "Zoug",
        "country": "Switzerland",
        "population_proper": "23435",
        "iso2": "CH",
        "capital": "admin",
        "lat": "47.172421",
        "lng": "8.517445",
        "population": "23435"
    },
    {
        "city": "Frauenfeld",
        "admin": "Thurgau",
        "country": "Switzerland",
        "population_proper": "21979",
        "iso2": "CH",
        "capital": "",
        "lat": "47.55993",
        "lng": "8.8998",
        "population": "21979"
    },
    {
        "city": "Bellinzona",
        "admin": "Tessin",
        "country": "Switzerland",
        "population_proper": "16572",
        "iso2": "CH",
        "capital": "",
        "lat": "46.194902",
        "lng": "9.024729",
        "population": "16572"
    },
    {
        "city": "Aarau",
        "admin": "Aargau",
        "country": "Switzerland",
        "population_proper": "15501",
        "iso2": "CH",
        "capital": "admin",
        "lat": "47.389616",
        "lng": "8.052354",
        "population": "15501"
    },
    {
        "city": "Herisau",
        "admin": "Appenzell Ausserrhoden",
        "country": "Switzerland",
        "population_proper": "15438",
        "iso2": "CH",
        "capital": "",
        "lat": "47.38271",
        "lng": "9.27186",
        "population": "15438"
    },
    {
        "city": "Solothurn",
        "admin": "Solothurn",
        "country": "Switzerland",
        "population_proper": "14853",
        "iso2": "CH",
        "capital": "admin",
        "lat": "47.206649",
        "lng": "7.516605",
        "population": "14853"
    },
    {
        "city": "Schwyz",
        "admin": "Schwyz",
        "country": "Switzerland",
        "population_proper": "14177",
        "iso2": "CH",
        "capital": "admin",
        "lat": "47.027858",
        "lng": "8.656112",
        "population": "14177"
    },
    {
        "city": "Liestal",
        "admin": "Basel-Landschaft",
        "country": "Switzerland",
        "population_proper": "12832",
        "iso2": "CH",
        "capital": "admin",
        "lat": "47.482779",
        "lng": "7.742975",
        "population": "12832"
    },
    {
        "city": "Delémont",
        "admin": "Jura",
        "country": "Switzerland",
        "population_proper": "11315",
        "iso2": "CH",
        "capital": "admin",
        "lat": "47.366429",
        "lng": "7.329005",
        "population": "11315"
    },
    {
        "city": "Sarnen",
        "admin": "Obwalden",
        "country": "Switzerland",
        "population_proper": "9410",
        "iso2": "CH",
        "capital": "admin",
        "lat": "46.898509",
        "lng": "8.250681",
        "population": "9410"
    },
    {
        "city": "Altdorf",
        "admin": "Uri",
        "country": "Switzerland",
        "population_proper": "8678",
        "iso2": "CH",
        "capital": "admin",
        "lat": "46.880422",
        "lng": "8.644409",
        "population": "8678"
    },
    {
        "city": "Stansstad",
        "admin": "Nidwalden",
        "country": "Switzerland",
        "population_proper": "7475",
        "iso2": "CH",
        "capital": "",
        "lat": "46.97731",
        "lng": "8.34005",
        "population": "7475"
    },
    {
        "city": "Glarus",
        "admin": "Glarus",
        "country": "Switzerland",
        "population_proper": "5681",
        "iso2": "CH",
        "capital": "admin",
        "lat": "47.04057",
        "lng": "9.068036",
        "population": "5681"
    },
    {
        "city": "Appenzell",
        "admin": "Appenzell Innerrhoden",
        "country": "Switzerland",
        "population_proper": "5649",
        "iso2": "CH",
        "capital": "admin",
        "lat": "47.328414",
        "lng": "9.409647",
        "population": "5649"
    },
    {
        "city": "Saignelégier",
        "admin": "Jura",
        "country": "Switzerland",
        "population_proper": "",
        "iso2": "CH",
        "capital": "minor",
        "lat": "47.255435",
        "lng": "6.994608",
        "population": ""
    },
    {
        "city": "Affoltern am Albis",
        "admin": "Zürich",
        "country": "Switzerland",
        "population_proper": "",
        "iso2": "CH",
        "capital": "minor",
        "lat": "47.281224",
        "lng": "8.45346",
        "population": ""
    },
    {
        "city": "Cully",
        "admin": "Vaud",
        "country": "Switzerland",
        "population_proper": "",
        "iso2": "CH",
        "capital": "minor",
        "lat": "46.488301",
        "lng": "6.730109",
        "population": ""
    },
    {
        "city": "Romont",
        "admin": "Fribourg",
        "country": "Switzerland",
        "population_proper": "",
        "iso2": "CH",
        "capital": "minor",
        "lat": "46.696483",
        "lng": "6.918037",
        "population": ""
    },
    {
        "city": "Aarberg",
        "admin": "Berne",
        "country": "Switzerland",
        "population_proper": "",
        "iso2": "CH",
        "capital": "minor",
        "lat": "47.043835",
        "lng": "7.27357",
        "population": ""
    },
    {
        "city": "Scuol",
        "admin": "Graubünden",
        "country": "Switzerland",
        "population_proper": "",
        "iso2": "CH",
        "capital": "minor",
        "lat": "46.796756",
        "lng": "10.305946",
        "population": ""
    },
    {
        "city": "Fleurier",
        "admin": "Neuchâtel",
        "country": "Switzerland",
        "population_proper": "",
        "iso2": "CH",
        "capital": "minor",
        "lat": "46.903265",
        "lng": "6.582135",
        "population": ""
    },
    {
        "city": "Unterkulm",
        "admin": "Aargau",
        "country": "Switzerland",
        "population_proper": "",
        "iso2": "CH",
        "capital": "minor",
        "lat": "47.30998",
        "lng": "8.11371",
        "population": ""
    },
    {
        "city": "Stans",
        "admin": "Nidwalden",
        "country": "Switzerland",
        "population_proper": "",
        "iso2": "CH",
        "capital": "admin",
        "lat": "46.95805",
        "lng": "8.36609",
        "population": ""
    },
    {
        "city": "Lichtensteig",
        "admin": "Saint-Gall",
        "country": "Switzerland",
        "population_proper": "",
        "iso2": "CH",
        "capital": "minor",
        "lat": "47.337551",
        "lng": "9.084078",
        "population": ""
    },
    {
        "city": "Yverdon-les-Bains",
        "admin": "Vaud",
        "country": "Switzerland",
        "population_proper": "",
        "iso2": "CH",
        "capital": "minor",
        "lat": "46.777908",
        "lng": "6.635502",
        "population": ""
    },
    {
        "city": "Boudry",
        "admin": "Neuchâtel",
        "country": "Switzerland",
        "population_proper": "",
        "iso2": "CH",
        "capital": "minor",
        "lat": "46.953019",
        "lng": "6.83897",
        "population": ""
    },
    {
        "city": "Balsthal",
        "admin": "Solothurn",
        "country": "Switzerland",
        "population_proper": "",
        "iso2": "CH",
        "capital": "minor",
        "lat": "47.31591",
        "lng": "7.693047",
        "population": ""
    },
    {
        "city": "Dornach",
        "admin": "Solothurn",
        "country": "Switzerland",
        "population_proper": "",
        "iso2": "CH",
        "capital": "minor",
        "lat": "47.478042",
        "lng": "7.616417",
        "population": ""
    },
    {
        "city": "Lachen",
        "admin": "Schwyz",
        "country": "Switzerland",
        "population_proper": "",
        "iso2": "CH",
        "capital": "minor",
        "lat": "47.19927",
        "lng": "8.85432",
        "population": ""
    },
    {
        "city": "Payerne",
        "admin": "Vaud",
        "country": "Switzerland",
        "population_proper": "",
        "iso2": "CH",
        "capital": "minor",
        "lat": "46.82201",
        "lng": "6.93608",
        "population": ""
    },
    {
        "city": "Baden",
        "admin": "Aargau",
        "country": "Switzerland",
        "population_proper": "",
        "iso2": "CH",
        "capital": "minor",
        "lat": "47.478029",
        "lng": "8.302764",
        "population": ""
    },
    {
        "city": "Bad Zurzach",
        "admin": "Aargau",
        "country": "Switzerland",
        "population_proper": "",
        "iso2": "CH",
        "capital": "minor",
        "lat": "47.589169",
        "lng": "8.289621",
        "population": ""
    },
    {
        "city": "Tafers",
        "admin": "Fribourg",
        "country": "Switzerland",
        "population_proper": "",
        "iso2": "CH",
        "capital": "minor",
        "lat": "46.814829",
        "lng": "7.218519",
        "population": ""
    },
    {
        "city": "Haslen",
        "admin": "Appenzell Innerrhoden",
        "country": "Switzerland",
        "population_proper": "",
        "iso2": "CH",
        "capital": "minor",
        "lat": "47.369308",
        "lng": "9.367519",
        "population": ""
    },
    {
        "city": "Echallens",
        "admin": "Vaud",
        "country": "Switzerland",
        "population_proper": "",
        "iso2": "CH",
        "capital": "minor",
        "lat": "46.642498",
        "lng": "6.637324",
        "population": ""
    },
    {
        "city": "Rapperswil-Jona",
        "admin": "Saint-Gall",
        "country": "Switzerland",
        "population_proper": "",
        "iso2": "CH",
        "capital": "minor",
        "lat": "47.228942",
        "lng": "8.833889",
        "population": ""
    },
    {
        "city": "Bulle",
        "admin": "Fribourg",
        "country": "Switzerland",
        "population_proper": "",
        "iso2": "CH",
        "capital": "minor",
        "lat": "46.619499",
        "lng": "7.056743",
        "population": ""
    },
    {
        "city": "Bülach",
        "admin": "Zürich",
        "country": "Switzerland",
        "population_proper": "",
        "iso2": "CH",
        "capital": "minor",
        "lat": "47.518898",
        "lng": "8.536967",
        "population": ""
    },
    {
        "city": "Saint-Gall",
        "admin": "Saint-Gall",
        "country": "Switzerland",
        "population_proper": "",
        "iso2": "CH",
        "capital": "admin",
        "lat": "47.43639",
        "lng": "9.388615",
        "population": ""
    },
    {
        "city": "Wil",
        "admin": "Saint-Gall",
        "country": "Switzerland",
        "population_proper": "",
        "iso2": "CH",
        "capital": "minor",
        "lat": "47.460507",
        "lng": "9.04389",
        "population": ""
    },
    {
        "city": "Zofingen",
        "admin": "Aargau",
        "country": "Switzerland",
        "population_proper": "",
        "iso2": "CH",
        "capital": "minor",
        "lat": "47.289945",
        "lng": "7.947274",
        "population": ""
    },
    {
        "city": "Vevey",
        "admin": "Vaud",
        "country": "Switzerland",
        "population_proper": "",
        "iso2": "CH",
        "capital": "minor",
        "lat": "46.465264",
        "lng": "6.841168",
        "population": ""
    },
    {
        "city": "Renens",
        "admin": "Vaud",
        "country": "Switzerland",
        "population_proper": "",
        "iso2": "CH",
        "capital": "minor",
        "lat": "46.539894",
        "lng": "6.588096",
        "population": ""
    },
    {
        "city": "Brugg",
        "admin": "Aargau",
        "country": "Switzerland",
        "population_proper": "",
        "iso2": "CH",
        "capital": "minor",
        "lat": "47.481527",
        "lng": "8.203014",
        "population": ""
    },
    {
        "city": "Laufenburg",
        "admin": "Aargau",
        "country": "Switzerland",
        "population_proper": "",
        "iso2": "CH",
        "capital": "minor",
        "lat": "47.559248",
        "lng": "8.060446",
        "population": ""
    },
    {
        "city": "La Chaux-de-Fonds",
        "admin": "Neuchâtel",
        "country": "Switzerland",
        "population_proper": "",
        "iso2": "CH",
        "capital": "minor",
        "lat": "47.104417",
        "lng": "6.828892",
        "population": ""
    },
    {
        "city": "Andelfingen",
        "admin": "Zürich",
        "country": "Switzerland",
        "population_proper": "",
        "iso2": "CH",
        "capital": "minor",
        "lat": "47.594829",
        "lng": "8.679678",
        "population": ""
    },
    {
        "city": "Dietikon",
        "admin": "Zürich",
        "country": "Switzerland",
        "population_proper": "",
        "iso2": "CH",
        "capital": "minor",
        "lat": "47.404446",
        "lng": "8.394984",
        "population": ""
    },
    {
        "city": "Winterthur",
        "admin": "Zürich",
        "country": "Switzerland",
        "population_proper": "",
        "iso2": "CH",
        "capital": "minor",
        "lat": "47.50564",
        "lng": "8.72413",
        "population": ""
    },
    {
        "city": "Thun",
        "admin": "Berne",
        "country": "Switzerland",
        "population_proper": "",
        "iso2": "CH",
        "capital": "minor",
        "lat": "46.751176",
        "lng": "7.621663",
        "population": ""
    },
    {
        "city": "Le Locle",
        "admin": "Neuchâtel",
        "country": "Switzerland",
        "population_proper": "",
        "iso2": "CH",
        "capital": "minor",
        "lat": "47.059533",
        "lng": "6.752278",
        "population": ""
    },
    {
        "city": "Bremgarten",
        "admin": "Aargau",
        "country": "Switzerland",
        "population_proper": "",
        "iso2": "CH",
        "capital": "minor",
        "lat": "47.352604",
        "lng": "8.329955",
        "population": ""
    },
    {
        "city": "Tiefencastel",
        "admin": "Graubünden",
        "country": "Switzerland",
        "population_proper": "",
        "iso2": "CH",
        "capital": "minor",
        "lat": "46.660138",
        "lng": "9.57883",
        "population": ""
    },
    {
        "city": "Saint-Maurice",
        "admin": "Valais",
        "country": "Switzerland",
        "population_proper": "",
        "iso2": "CH",
        "capital": "minor",
        "lat": "46.218257",
        "lng": "7.003196",
        "population": ""
    },
    {
        "city": "Cernier",
        "admin": "Neuchâtel",
        "country": "Switzerland",
        "population_proper": "",
        "iso2": "CH",
        "capital": "minor",
        "lat": "47.057356",
        "lng": "6.894757",
        "population": ""
    },
    {
        "city": "Ostermundigen",
        "admin": "Berne",
        "country": "Switzerland",
        "population_proper": "",
        "iso2": "CH",
        "capital": "minor",
        "lat": "46.956112",
        "lng": "7.487187",
        "population": ""
    },
    {
        "city": "Estavayer-le-Lac",
        "admin": "Fribourg",
        "country": "Switzerland",
        "population_proper": "",
        "iso2": "CH",
        "capital": "minor",
        "lat": "46.849125",
        "lng": "6.845805",
        "population": ""
    },
    {
        "city": "Frutigen",
        "admin": "Berne",
        "country": "Switzerland",
        "population_proper": "",
        "iso2": "CH",
        "capital": "minor",
        "lat": "46.58782",
        "lng": "7.64751",
        "population": ""
    },
    {
        "city": "Muri",
        "admin": "Aargau",
        "country": "Switzerland",
        "population_proper": "",
        "iso2": "CH",
        "capital": "minor",
        "lat": "47.270428",
        "lng": "8.3382",
        "population": ""
    },
    {
        "city": "Murten",
        "admin": "Fribourg",
        "country": "Switzerland",
        "population_proper": "",
        "iso2": "CH",
        "capital": "minor",
        "lat": "46.92684",
        "lng": "7.110343",
        "population": ""
    },
    {
        "city": "Rheinfelden",
        "admin": "Aargau",
        "country": "Switzerland",
        "population_proper": "",
        "iso2": "CH",
        "capital": "minor",
        "lat": "47.553587",
        "lng": "7.793839",
        "population": ""
    },
    {
        "city": "Gersau",
        "admin": "Schwyz",
        "country": "Switzerland",
        "population_proper": "",
        "iso2": "CH",
        "capital": "minor",
        "lat": "46.994189",
        "lng": "8.524996",
        "population": ""
    },
    {
        "city": "Schüpfheim",
        "admin": "Lucerne",
        "country": "Switzerland",
        "population_proper": "",
        "iso2": "CH",
        "capital": "minor",
        "lat": "46.951613",
        "lng": "8.017235",
        "population": ""
    },
    {
        "city": "Saanen",
        "admin": "Berne",
        "country": "Switzerland",
        "population_proper": "",
        "iso2": "CH",
        "capital": "minor",
        "lat": "46.489557",
        "lng": "7.259609",
        "population": ""
    },
    {
        "city": "Olten",
        "admin": "Solothurn",
        "country": "Switzerland",
        "population_proper": "",
        "iso2": "CH",
        "capital": "minor",
        "lat": "47.357058",
        "lng": "7.909101",
        "population": ""
    },
    {
        "city": "Domat/Ems",
        "admin": "Graubünden",
        "country": "Switzerland",
        "population_proper": "",
        "iso2": "CH",
        "capital": "minor",
        "lat": "46.834827",
        "lng": "9.450752",
        "population": ""
    },
    {
        "city": "Münchwilen",
        "admin": "Thurgau",
        "country": "Switzerland",
        "population_proper": "",
        "iso2": "CH",
        "capital": "minor",
        "lat": "47.47788",
        "lng": "8.99569",
        "population": ""
    },
    {
        "city": "Horgen",
        "admin": "Zürich",
        "country": "Switzerland",
        "population_proper": "",
        "iso2": "CH",
        "capital": "minor",
        "lat": "47.255924",
        "lng": "8.598672",
        "population": ""
    },
    {
        "city": "Willisau",
        "admin": "Lucerne",
        "country": "Switzerland",
        "population_proper": "",
        "iso2": "CH",
        "capital": "minor",
        "lat": "47.119362",
        "lng": "7.991459",
        "population": ""
    },
    {
        "city": "Rorschach",
        "admin": "Saint-Gall",
        "country": "Switzerland",
        "population_proper": "",
        "iso2": "CH",
        "capital": "minor",
        "lat": "47.477166",
        "lng": "9.485434",
        "population": ""
    },
    {
        "city": "Morges",
        "admin": "Vaud",
        "country": "Switzerland",
        "population_proper": "",
        "iso2": "CH",
        "capital": "minor",
        "lat": "46.511255",
        "lng": "6.495693",
        "population": ""
    },
    {
        "city": "Interlaken",
        "admin": "Berne",
        "country": "Switzerland",
        "population_proper": "",
        "iso2": "CH",
        "capital": "minor",
        "lat": "46.683872",
        "lng": "7.866376",
        "population": ""
    },
    {
        "city": "Sursee",
        "admin": "Lucerne",
        "country": "Switzerland",
        "population_proper": "",
        "iso2": "CH",
        "capital": "minor",
        "lat": "47.170881",
        "lng": "8.111132",
        "population": ""
    },
    {
        "city": "Küssnacht",
        "admin": "Schwyz",
        "country": "Switzerland",
        "population_proper": "",
        "iso2": "CH",
        "capital": "minor",
        "lat": "47.085571",
        "lng": "8.442057",
        "population": ""
    },
    {
        "city": "Weinfelden",
        "admin": "Thurgau",
        "country": "Switzerland",
        "population_proper": "",
        "iso2": "CH",
        "capital": "minor",
        "lat": "47.56571",
        "lng": "9.10701",
        "population": ""
    },
    {
        "city": "Pfäffikon",
        "admin": "Zürich",
        "country": "Switzerland",
        "population_proper": "",
        "iso2": "CH",
        "capital": "minor",
        "lat": "47.365728",
        "lng": "8.78595",
        "population": ""
    },
    {
        "city": "Meilen",
        "admin": "Zürich",
        "country": "Switzerland",
        "population_proper": "",
        "iso2": "CH",
        "capital": "minor",
        "lat": "47.270429",
        "lng": "8.643675",
        "population": ""
    },
    {
        "city": "Langnau",
        "admin": "Berne",
        "country": "Switzerland",
        "population_proper": "",
        "iso2": "CH",
        "capital": "minor",
        "lat": "46.93936",
        "lng": "7.78738",
        "population": ""
    },
    {
        "city": "Kreuzlingen",
        "admin": "Thurgau",
        "country": "Switzerland",
        "population_proper": "",
        "iso2": "CH",
        "capital": "minor",
        "lat": "47.650512",
        "lng": "9.175038",
        "population": ""
    },
    {
        "city": "Nidau",
        "admin": "Berne",
        "country": "Switzerland",
        "population_proper": "",
        "iso2": "CH",
        "capital": "minor",
        "lat": "47.129167",
        "lng": "7.238464",
        "population": ""
    },
    {
        "city": "Igis",
        "admin": "Graubünden",
        "country": "Switzerland",
        "population_proper": "",
        "iso2": "CH",
        "capital": "minor",
        "lat": "46.945308",
        "lng": "9.57218",
        "population": ""
    },
    {
        "city": "Ilanz",
        "admin": "Graubünden",
        "country": "Switzerland",
        "population_proper": "",
        "iso2": "CH",
        "capital": "minor",
        "lat": "46.773071",
        "lng": "9.204486",
        "population": ""
    },
    {
        "city": "Einsiedeln",
        "admin": "Schwyz",
        "country": "Switzerland",
        "population_proper": "",
        "iso2": "CH",
        "capital": "minor",
        "lat": "47.12802",
        "lng": "8.74319",
        "population": ""
    },
    {
        "city": "Wangen",
        "admin": "Berne",
        "country": "Switzerland",
        "population_proper": "",
        "iso2": "CH",
        "capital": "minor",
        "lat": "47.231995",
        "lng": "7.654479",
        "population": ""
    },
    {
        "city": "Hinwil",
        "admin": "Zürich",
        "country": "Switzerland",
        "population_proper": "",
        "iso2": "CH",
        "capital": "minor",
        "lat": "47.29702",
        "lng": "8.84348",
        "population": ""
    },
    {
        "city": "Hochdorf",
        "admin": "Lucerne",
        "country": "Switzerland",
        "population_proper": "",
        "iso2": "CH",
        "capital": "minor",
        "lat": "47.168408",
        "lng": "8.291788",
        "population": ""
    },
    {
        "city": "Thusis",
        "admin": "Graubünden",
        "country": "Switzerland",
        "population_proper": "",
        "iso2": "CH",
        "capital": "minor",
        "lat": "46.697524",
        "lng": "9.440202",
        "population": ""
    },
    {
        "city": "Lenzburg",
        "admin": "Aargau",
        "country": "Switzerland",
        "population_proper": "",
        "iso2": "CH",
        "capital": "minor",
        "lat": "47.384048",
        "lng": "8.181798",
        "population": ""
    },
    {
        "city": "Dielsdorf",
        "admin": "Zürich",
        "country": "Switzerland",
        "population_proper": "",
        "iso2": "CH",
        "capital": "minor",
        "lat": "47.480247",
        "lng": "8.45628",
        "population": ""
    },
    {
        "city": "Mörel-Filet",
        "admin": "Valais",
        "country": "Switzerland",
        "population_proper": "",
        "iso2": "CH",
        "capital": "minor",
        "lat": "46.355548",
        "lng": "8.044112",
        "population": ""
    },
    {
        "city": "Münster-Geschinen",
        "admin": "Valais",
        "country": "Switzerland",
        "population_proper": "",
        "iso2": "CH",
        "capital": "minor",
        "lat": "46.491704",
        "lng": "8.272063",
        "population": ""
    },
    {
        "city": "Martigny",
        "admin": "Valais",
        "country": "Switzerland",
        "population_proper": "",
        "iso2": "CH",
        "capital": "minor",
        "lat": "46.101915",
        "lng": "7.073989",
        "population": ""
    },
    {
        "city": "Brig-Glis",
        "admin": "Valais",
        "country": "Switzerland",
        "population_proper": "",
        "iso2": "CH",
        "capital": "minor",
        "lat": "46.3145",
        "lng": "7.985796",
        "population": ""
    },
    {
        "city": "Davos",
        "admin": "Graubünden",
        "country": "Switzerland",
        "population_proper": "",
        "iso2": "CH",
        "capital": "minor",
        "lat": "46.797752",
        "lng": "9.82702",
        "population": ""
    },
    {
        "city": "Uster",
        "admin": "Zürich",
        "country": "Switzerland", 
        "population_proper": "", 
        "iso2": "CH", 
        "capital": "minor", 
        "lat": "47.352097", 
        "lng": "8.716687", 
        "population": ""
    }, 
    {
        "city": "Altstätten", 
        "admin": "Saint-Gall", 
        "country": "Switzerland", 
        "population_proper": "", 
        "iso2": "CH", 
        "capital": "minor", 
        "lat": "47.376433", 
        "lng": "9.554989", 
        "population": ""
    }, 
    {
        "city": "Courtelary", 
        "admin": "Berne", 
        "country": "Switzerland", 
        "population_proper": "", 
        "iso2": "CH", 
        "capital": "minor", 
        "lat": "47.179369", 
        "lng": "7.072954", 
        "population": ""
    }, 
    {
        "city": "Porrentruy", 
        "admin": "Jura", 
        "country": "Switzerland", 
        "population_proper": "", 
        "iso2": "CH", 
        "capital": "minor", 
        "lat": "47.415327", 
        "lng": "7.075221", 
        "population": ""
    }
]